[
    {
        "id": 1,
        "name": "Q39 Kansas City BBQ",
        "street": "1000 West 39th Street",
        "city": "Kansas City",
        "state": "Missouri",
        "state_abbreviation": "MO",
        "country": "United States",
        "country_abbreviation": "USA",
        "zipcode": "64111",
        "formatted_address": "1000 West 39th Street, Kansas City, MO 64111, USA",
        "lat": 39.0574043,
        "lng": -94.5981116,
        "active": true,
        "rating": 1.2
    },
    {
        "id": 2,
        "name": "The Farmhouse",
        "street": "300 Delaware Street",
        "city": "Kansas City",
        "state": "Missouri",
        "state_abbreviation": "MO",
        "country": "United States",
        "country_abbreviation": "USA",
        "zipcode": "64105",
        "formatted_address": "300 Delaware Street, Kansas City, MO 64105, USA",
        "lat": 39.1093695,
        "lng": -94.5848291,
        "active": true,
        "rating": 5
    },
    {
        "id": 3,
        "name": "Jersey Boyz",
        "street": "315 Armour Road",
        "city": "Kansas City",
        "state": "Missouri",
        "state_abbreviation": "MO",
        "country": "United States",
        "country_abbreviation": "USA",
        "zipcode": "64116",
        "formatted_address": "315 Armour Road, Kansas City, MO 64116, USA",
        "lat": 39.1420553,
        "lng": -94.5768657,
        "active": true,
        "rating": 0
    },
    {
        "id": 4,
        "name": "Cafe Gratitude",
        "street": "333 Southwest Blvd",
        "city": "Kansas City",
        "state": "Missouri",
        "state_abbreviation": "MO",
        "country": "United States",
        "country_abbreviation": "USA",
        "zipcode": "64108",
        "formatted_address": "333 Southwest Blvd, Kansas City, MO 64108, USA",
        "lat": 34,
        "lng": -95,
        "active": true
    },
    {
        "id": 5,
        "name": "Shnazzy Pizza",
        "street": "300 Delaware Street",
        "city": "Kansas City",
        "state": "Missouri",
        "state_abbreviation": "MO",
        "country": "United States",
        "country_abbreviation": "USA",
        "zipcode": "64105",
        "formatted_address": "300 Delaware Street, Kansas City, MO 64106, USA",
        "lat": 10.1093695,
        "lng": -94.5848291,
        "active": true,
        "rating": 5
    }
]
